City_ID,City,Lat,Lng,Max Temp,Humidity,Cloudiness,Wind Speed,Country,Date
0,atuona,-9.8,-139.0333,25.12,78,0,5.55,PF,1667502894
1,cam ranh,11.9214,109.1591,24.98,83,20,2.06,VN,1667502895
2,arraial do cabo,-22.9661,-42.0278,20.92,64,75,4.63,BR,1667502896
3,paraiso,9.8383,-83.8656,22.95,80,100,1.18,CR,1667502898
4,butaritari,3.0707,172.7902,26.61,70,40,4.94,KI,1667502899
5,rikitea,-23.1203,-134.9692,20.91,69,100,6.46,PF,1667502900
6,ushuaia,-54.8,-68.3,16.79,48,75,3.09,AR,1667502902
7,cape town,-33.9258,18.4232,21.86,78,10,5.81,ZA,1667502600
8,son la,21.3167,103.9,14.08,80,94,0.92,VN,1667502904
9,bicester,51.9,-1.1536,8.22,93,20,0.51,GB,1667502905
10,sao filipe,14.8961,-24.4956,28.0,53,100,4.9,CV,1667502906
11,bluff,-46.6,168.3333,9.37,82,100,11.04,NZ,1667502908
12,yerbogachen,61.2767,108.0108,-19.1,99,13,1.1,RU,1667502911
13,sola,-13.8833,167.55,26.44,72,12,2.3,VU,1667502912
14,waingapu,-9.6567,120.2641,27.23,74,100,0.87,ID,1667502913
15,adrar,20.5022,-10.0711,26.36,10,0,4.46,MR,1667502915
16,along,28.1667,94.7667,14.26,84,2,0.79,IN,1667502916
17,kawanoe,34.0167,133.5667,14.76,76,100,1.86,JP,1667502918
18,san cristobal,7.7669,-72.225,27.1,69,91,2.95,VE,1667502920
19,saldanha,-33.0117,17.9442,18.03,89,12,1.73,ZA,1667502921
20,tacadang,16.7264,120.6405,15.88,92,48,1.42,PH,1667502922
21,provideniya,64.3833,-173.3,-11.5,73,92,2.96,RU,1667502923
22,lebu,-37.6167,-73.65,15.57,77,35,3.88,CL,1667502924
23,bredasdorp,-34.5322,20.0403,17.92,96,100,5.32,ZA,1667502925
24,tasiilaq,65.6145,-37.6368,0.09,98,100,4.47,GL,1667502927
25,hermanus,-34.4187,19.2345,19.33,93,100,5.87,ZA,1667502928
26,albany,42.6001,-73.9662,20.32,45,0,2.49,US,1667502929
27,busselton,-33.65,115.3333,14.17,90,9,3.72,AU,1667502930
28,puerto madryn,-42.7692,-65.0385,27.03,17,0,11.9,AR,1667502897
29,codrington,-38.2667,141.9667,9.29,91,100,2.07,AU,1667502933
30,port alfred,-33.5906,26.891,18.99,94,76,2.24,ZA,1667502934
31,port lincoln,-34.7333,135.8667,11.4,77,0,2.45,AU,1667502936
32,zyryanskoye,56.8306,86.6258,-2.14,96,41,3.06,RU,1667502938
33,hobart,-42.8794,147.3294,7.92,79,4,2.57,AU,1667502939
34,pauini,-7.7136,-66.9764,33.1,25,13,1.99,BR,1667502940
35,kirakira,-10.4544,161.9205,25.6,85,4,2.54,SB,1667502941
36,puerto ayora,-0.7393,-90.3518,24.98,78,85,5.42,EC,1667502942
37,irricana,51.3237,-113.6048,-1.56,92,36,3.75,CA,1667502943
38,airai,-8.9266,125.4092,16.93,92,100,0.76,TL,1667502944
39,hilo,19.7297,-155.09,24.23,96,100,3.6,US,1667502802
40,langarud,37.197,50.1535,15.66,85,13,0.75,IR,1667502928
41,sioux lookout,50.1001,-91.917,10.04,71,75,4.12,CA,1667502947
42,bambous virieux,-20.3428,57.7575,23.45,78,40,3.09,MU,1667502923
43,san quintin,30.4833,-115.95,17.62,57,10,10.44,MX,1667502949
44,vaini,-21.2,-175.2,24.56,82,100,8.13,TO,1667502950
45,poum,-20.2333,164.0167,25.49,79,3,3.06,NC,1667502951
46,labuhan,-6.8844,112.2051,26.28,86,100,3.16,ID,1667502953
47,cabo san lucas,22.8909,-109.9124,30.9,69,0,2.06,MX,1667502791
48,luanda,-8.8368,13.2343,25.42,84,95,4.09,AO,1667502668
49,buraydah,26.326,43.975,21.25,47,12,5.56,SA,1667502956
50,lompoc,34.6391,-120.4579,16.96,48,0,6.69,US,1667502957
51,muros,42.7762,-9.0603,11.72,88,89,2.53,ES,1667502788
52,kapaa,22.0752,-159.319,27.28,79,40,6.69,US,1667502959
53,galesong,-5.3166,119.3661,25.01,82,100,2.61,ID,1667502961
54,cobija,-11.0267,-68.7692,30.1,32,73,4.12,BO,1667502963
55,punta arenas,-53.15,-70.9167,18.06,55,40,11.83,CL,1667502852
56,jamestown,42.097,-79.2353,20.57,55,0,4.12,US,1667502966
57,ghanzi,-21.5667,21.7833,26.3,40,0,4.24,BW,1667502967
58,ribeira grande,38.5167,-28.7,20.22,94,75,4.47,PT,1667502968
59,aktau,43.65,51.2,7.32,71,100,7.36,KZ,1667502970
60,havelock,34.8791,-76.9013,23.3,71,75,3.6,US,1667502971
61,temiscaming,46.7212,-79.0971,16.75,59,100,4.12,CA,1667502972
62,constitucion,-35.3333,-72.4167,15.93,65,15,3.08,CL,1667502973
63,geraldton,-28.7667,114.6,13.23,94,75,2.06,AU,1667502975
64,leningradskiy,69.3833,178.4167,-19.7,92,100,3.81,RU,1667502976
65,georgetown,5.4112,100.3354,26.05,90,20,1.54,MY,1667502977
66,mar del plata,-38.0023,-57.5575,18.79,75,0,6.26,AR,1667502978
67,kavieng,-2.5744,150.7967,27.75,74,96,0.61,PG,1667502980
68,homer,59.6425,-151.5483,1.93,69,0,1.54,US,1667502981
69,tezu,27.9167,96.1667,18.11,50,67,1.98,IN,1667502982
70,donji milanovac,44.4627,22.1523,12.08,71,14,1.41,RS,1667502984
71,pisco,-13.7,-76.2167,19.03,72,100,3.6,PE,1667502985
72,qaanaaq,77.484,-69.3632,-14.36,56,64,3.99,GL,1667502986
73,parana,-31.732,-60.5238,28.08,31,100,4.65,AR,1667502988
74,yellowknife,62.456,-114.3525,-10.71,79,100,9.77,CA,1667502989
75,wloclawek,52.6482,19.0678,6.4,72,16,4.86,PL,1667502990
76,tuktoyaktuk,69.4541,-133.0374,-11.0,85,100,4.63,CA,1667502992
77,kurchum,48.5722,83.6542,6.06,49,77,1.92,KZ,1667502993
78,evensk,61.95,159.2333,-15.0,73,100,5.15,RU,1667502995
79,gazojak,41.1875,61.4036,13.28,42,99,3.51,TM,1667502879
80,sitka,57.0531,-135.33,5.94,75,75,0.0,US,1667502998
81,bukachacha,52.9833,116.9167,-13.26,94,37,0.92,RU,1667502999
82,souillac,-20.5167,57.5167,23.21,78,40,3.09,MU,1667503000
83,lichinga,-13.3128,35.2406,21.05,52,0,3.6,MZ,1667503002
84,vinh,18.6667,105.6667,20.85,69,89,1.9,VN,1667503004
85,chokurdakh,70.6333,147.9167,-23.28,94,100,1.66,RU,1667503005
86,kiama,-34.6833,150.8667,15.0,90,89,1.22,AU,1667503006
87,chinsali,-10.5414,32.0816,25.02,30,25,5.11,ZM,1667503008
88,linxi,39.7,118.4333,2.96,25,0,2.1,CN,1667503009
89,dikson,73.5069,80.5464,-3.27,93,100,2.74,RU,1667503010
90,berlevag,70.8578,29.0864,4.0,81,100,10.29,NO,1667503011
91,torbay,47.6666,-52.7314,4.04,69,75,10.8,CA,1667503012
92,luganville,-15.5333,167.1667,25.22,83,11,1.74,VU,1667503013
93,nikolskoye,59.7035,30.7861,1.0,93,95,1.25,RU,1667503014
94,chuy,-33.6971,-53.4616,17.79,60,1,5.28,UY,1667503015
95,san patricio,28.017,-97.5169,30.05,69,90,7.13,US,1667503017
96,nikel,69.4128,30.222,1.1,94,100,5.53,RU,1667503019
97,kazerun,29.6195,51.6541,17.86,78,83,0.62,IR,1667503021
98,caravelas,-17.7125,-39.2481,21.16,91,100,8.56,BR,1667503022
99,lunsar,8.6833,-12.5333,24.46,89,100,0.6,SL,1667503024
100,fairfield,41.2668,-73.3162,21.13,58,0,2.57,US,1667503025
101,rawson,-43.3002,-65.1023,28.72,15,0,12.07,AR,1667503027
102,baruun-urt,46.6806,113.2792,-6.85,60,1,3.77,MN,1667503028
103,la tuque,47.4334,-72.7824,16.14,36,100,3.09,CA,1667503030
104,trat,12.5,102.5,23.79,71,100,2.35,TH,1667503031
105,mataura,-46.1927,168.8643,10.25,62,48,4.67,NZ,1667503032
106,ulladulla,-35.35,150.4667,12.68,80,57,1.86,AU,1667503035
107,manokwari,-0.8667,134.0833,26.02,77,100,1.83,ID,1667503036
108,inongo,-1.95,18.2667,22.03,92,87,1.15,CD,1667503037
109,bengkulu,-3.8004,102.2655,24.71,88,100,2.98,ID,1667503038
110,saskylakh,71.9167,114.0833,-10.75,93,100,4.28,RU,1667503017
111,tessalit,20.1986,1.0114,25.86,13,0,3.63,ML,1667503040
112,ayagoz,47.9714,80.4392,4.2,87,85,1.45,KZ,1667503041
113,port elizabeth,-33.918,25.5701,20.61,88,0,6.17,ZA,1667503042
114,san juan de abajo,20.8167,-105.1833,28.82,48,0,3.6,MX,1667503043
115,svetlogorsk,52.6333,29.7333,7.68,94,100,3.12,BY,1667503045
116,saint george,37.1041,-113.5841,9.97,60,100,5.36,US,1667503047
117,fairlie,55.756,-4.8556,6.21,84,7,2.19,GB,1667503048
118,ponta do sol,32.6667,-17.1,22.78,92,77,1.3,PT,1667503049
119,longyearbyen,78.2186,15.6401,0.48,93,100,1.8,SJ,1667503050
120,bosansko grahovo,44.1794,16.3639,10.36,86,13,1.4,BA,1667503051
121,the pas,53.8251,-101.2541,-2.99,86,100,5.66,CA,1667503053
122,viedma,-40.8135,-62.9967,30.14,14,0,8.0,AR,1667502779
123,turayf,31.6725,38.6637,15.14,67,0,4.12,SA,1667503056
124,santa cruz cabralia,-16.2781,-39.0247,22.13,88,100,3.09,BR,1667503057
125,kodiak,57.79,-152.4072,0.73,60,0,7.72,US,1667503058
126,lorengau,-2.0226,147.2712,27.07,78,100,0.19,PG,1667503059
127,kavaratti,10.5669,72.642,27.97,72,59,3.76,IN,1667503060
128,karoi,-16.8099,29.6925,19.01,79,87,2.18,ZW,1667503061
129,columbia,34.0007,-81.0348,24.47,56,20,3.6,US,1667503063
130,barrow,71.2906,-156.7887,-11.99,85,100,3.6,US,1667503004
131,rutland,43.6167,-73.0162,19.95,42,0,3.09,US,1667503065
132,novo aripuana,-5.1206,-60.3797,28.42,53,97,1.31,BR,1667503066
133,riyadh,24.6877,46.7219,24.08,49,41,7.09,SA,1667502998
134,dunnville,42.9001,-79.6163,14.47,91,0,2.68,CA,1667503068
135,henties bay,-22.116,14.2845,15.34,81,1,3.07,NA,1667503069
136,valdemarpils,57.3707,22.5919,6.17,94,1,1.45,LV,1667503070
137,erzurum,40.0,41.5,6.82,67,6,2.59,TR,1667502846
138,lasa,46.6166,10.7002,9.65,96,100,2.91,IT,1667502840
139,kungurtug,50.5994,97.5228,-11.35,94,38,0.79,RU,1667503073
140,arlit,18.7369,7.3853,27.31,16,5,5.49,NE,1667503074
141,vadlapudi,14.3167,79.8,24.19,88,17,2.08,IN,1667503075
142,tilichiki,60.4667,166.1,-12.69,98,100,4.09,RU,1667503076
143,thompson,55.7435,-97.8558,-4.91,93,100,7.72,CA,1667503077
144,nova olimpia,-14.7972,-57.2881,30.69,25,9,3.68,BR,1667503078
145,antalya,36.7741,30.7178,17.27,67,0,3.6,TR,1667502787
146,saint-philippe,-21.3585,55.7679,22.77,83,100,4.55,RE,1667503080
147,georgiyevskoye,58.731,45.024,-0.03,91,100,2.33,RU,1667503082
148,pangnirtung,66.1451,-65.7125,-10.0,73,75,7.2,CA,1667503084
149,umaria,23.5333,80.8333,18.21,57,0,1.6,IN,1667503086
150,mana,5.6592,-53.7767,28.57,69,86,3.96,GF,1667503087
151,krasnoselkup,65.7,82.4667,-16.05,92,25,2.88,RU,1667503088
152,ghorawal,24.7667,82.7833,20.07,53,0,1.67,IN,1667503089
153,new norfolk,-42.7826,147.0587,7.72,64,12,0.45,AU,1667503090
154,samana,19.2056,-69.3369,30.12,70,75,3.09,DO,1667503091
155,salalah,17.0151,54.0924,27.05,69,20,2.06,OM,1667502808
156,causapscal,48.3542,-67.227,11.24,53,48,4.3,CA,1667503093
157,aklavik,68.2191,-135.0107,-13.0,78,100,2.57,CA,1667503094
158,dzerzhinskoye,56.8344,95.2283,-2.6,93,100,1.08,RU,1667503095
159,port shepstone,-30.7414,30.455,21.17,87,100,1.8,ZA,1667503096
160,talnakh,69.4865,88.3972,-9.13,92,100,5.71,RU,1667503098
161,taltal,-25.4,-70.4833,18.53,64,22,2.98,CL,1667503099
162,tazovskiy,67.4667,78.7,-15.43,89,18,2.95,RU,1667503100
163,nanortalik,60.1432,-45.2371,4.15,77,100,16.37,GL,1667503101
164,east london,-33.0153,27.9116,19.55,85,100,5.17,ZA,1667503085
165,castro,-24.7911,-50.0119,18.32,50,41,2.65,BR,1667503104
166,erzin,36.9559,36.2,17.34,50,0,1.15,TR,1667503105
167,pevek,69.7008,170.3133,-26.28,99,43,0.77,RU,1667503106
168,fairbanks,64.8378,-147.7164,-10.99,84,100,4.63,US,1667503107
169,iqaluit,63.7506,-68.5145,-13.5,71,6,7.15,CA,1667503108
170,platteville,42.7342,-90.4785,22.3,53,100,9.38,US,1667503109
171,teya,60.3778,92.6267,-2.64,98,100,0.75,RU,1667503110
172,norman wells,65.282,-126.8329,-11.98,79,100,1.54,CA,1667503111
173,palmas,-10.2128,-48.3603,30.93,55,40,1.54,BR,1667503113
174,college,64.8569,-147.8028,-11.0,84,100,4.63,US,1667503114
175,hithadhoo,-0.6,73.0833,27.52,74,86,6.39,MV,1667503115
176,laguna,38.421,-121.4238,15.05,57,0,5.66,US,1667503116
177,oksfjord,70.2396,22.3479,7.1,89,100,3.14,NO,1667503117
178,akureyri,65.6835,-18.0878,3.6,94,100,1.72,IS,1667502897
179,port hardy,50.6996,-127.4199,5.1,93,100,7.72,CA,1667503119
180,muzhi,65.3667,64.6667,-12.39,90,61,2.99,RU,1667503120
181,kasane,-17.8167,25.15,21.59,75,30,1.81,BW,1667503123
182,daru,-9.0763,143.2092,26.83,83,100,3.39,PG,1667503124
183,marystown,47.1666,-55.1483,5.78,49,9,9.26,CA,1667503125
184,carutapera,-1.195,-46.02,29.08,67,94,3.15,BR,1667503127
185,nileshwar,12.25,75.1,25.39,83,94,2.17,IN,1667503129
186,marsh harbour,26.5412,-77.0636,26.3,68,0,5.01,BS,1667503130
187,zholymbet,51.7433,71.7122,3.45,61,100,6.75,KZ,1667503131
188,chifeng,42.2683,118.9636,-2.6,38,0,3.01,CN,1667503132
189,springbok,-29.6643,17.8865,13.96,69,0,1.9,ZA,1667503133
190,victoria,22.2855,114.1577,23.3,95,100,4.02,HK,1667503135
191,derzhavinsk,51.1,66.3167,3.15,92,100,6.99,KZ,1667503139
192,mareeba,-17.0,145.4333,23.4,89,84,0.94,AU,1667503140
193,turukhansk,65.8167,87.9833,-21.22,96,27,2.12,RU,1667503141
194,marawi,7.9986,124.2928,20.81,92,89,0.86,PH,1667503142
195,khatanga,71.9667,102.5,-10.07,95,100,3.76,RU,1667503143
196,port hedland,-20.3167,118.5667,21.03,52,0,4.63,AU,1667503144
197,sendhwa,21.6833,75.1,22.95,37,0,0.75,IN,1667503146
198,vardo,70.3705,31.1107,3.99,93,75,4.63,NO,1667503147
199,vostok,46.4856,135.8833,-8.34,84,100,3.68,RU,1667503148
200,kawalu,-7.3817,108.2082,22.71,98,100,1.08,ID,1667503149
201,mahibadhoo,3.7833,72.9667,27.77,76,17,5.08,MV,1667503150
202,vanimo,-2.6741,141.3028,25.4,89,71,1.72,PG,1667503152
203,hjelset,62.7833,7.4833,11.88,66,40,2.57,NO,1667503153
204,ilebo,-4.3167,20.5833,21.41,94,65,0.28,CD,1667503154
205,charters towers,-20.1,146.2667,19.02,74,0,4.4,AU,1667503155
206,mindelo,16.8901,-24.9804,27.75,54,0,8.23,CV,1667503156
207,atocha,-20.9333,-66.2333,19.73,4,45,6.7,BO,1667503157
208,asarganj,25.15,86.6833,21.49,56,89,0.63,IN,1667503158
209,alofi,-19.0595,-169.9187,23.94,94,100,4.63,NU,1667503160
210,grasse,43.6667,6.9167,12.92,94,75,0.0,FR,1667503054
211,faanui,-16.4833,-151.75,25.08,79,99,6.88,PF,1667503164
212,soe,-9.8607,124.284,20.25,91,100,0.98,ID,1667503165
213,yangambi,0.8102,24.4336,21.33,99,96,0.81,CD,1667503166
214,bagotville,-28.9833,153.4167,12.14,88,6,2.98,AU,1667503169
215,aykhal,66.0,111.5,-15.78,77,100,7.51,RU,1667503171
216,naze,28.3667,129.4833,21.51,81,100,6.97,JP,1667503172
217,astoria,46.1879,-123.8313,8.29,79,100,2.06,US,1667503173
218,taoudenni,22.6783,-3.9836,27.51,12,6,3.97,ML,1667503174
219,seddon,-37.8068,144.8916,12.08,87,40,2.06,AU,1667503175
220,yanam,16.7333,82.2167,24.33,89,85,1.51,IN,1667503178
221,anchorage,61.2181,-149.9003,-0.18,90,100,3.09,US,1667503179
222,hounde,11.5,-3.5167,28.03,21,17,2.17,BF,1667503180
223,porec,45.2258,13.5939,15.81,85,100,4.18,HR,1667503041
224,vila velha,-20.3297,-40.2925,18.97,85,100,8.23,BR,1667503137
225,portland,45.5234,-122.6762,8.94,86,100,3.6,US,1667502969
226,kropotkin,45.4375,40.5756,8.19,73,49,1.29,RU,1667503185
227,la ronge,55.1001,-105.2842,-4.86,80,100,4.63,CA,1667503187
228,meulaboh,4.1363,96.1285,23.51,97,100,1.29,ID,1667503188
229,dalvik,65.9702,-18.5286,2.96,89,100,1.39,IS,1667503189
230,washington,47.5001,-120.5015,3.97,72,100,0.2,US,1667502464
231,carman,49.4992,-98.0016,3.51,52,100,7.2,CA,1667503192
232,ancud,-41.8697,-73.8203,16.28,72,24,3.43,CL,1667503193
233,half moon bay,37.4636,-122.4286,15.29,50,0,4.63,US,1667503195
234,aksarka,66.5606,67.7975,-14.91,92,5,0.6,RU,1667503196
235,bereda,43.2686,-7.5406,9.21,100,5,1.31,ES,1667503197
236,dunedin,-45.8742,170.5036,10.08,66,16,2.83,NZ,1667503199
237,vestmannaeyjar,63.4427,-20.2734,4.93,76,0,8.92,IS,1667503200
238,boende,-0.2167,20.8667,21.19,95,100,0.33,CD,1667503201
239,mount isa,-20.7333,139.5,15.87,29,0,3.6,AU,1667503203
240,afonso bezerra,-5.4983,-36.5056,30.46,51,99,9.17,BR,1667503204
241,san jose,37.3394,-121.895,15.18,51,20,4.63,US,1667503118
242,bara,10.3744,10.7288,27.77,32,100,2.84,NG,1667503206
243,santa cruz,-17.8,-63.1667,28.03,21,1,11.32,BO,1667503155
244,onverwacht,5.5833,-55.1833,30.0,58,40,1.03,SR,1667503209
245,oranjemund,-28.55,16.4333,15.88,90,11,2.75,NA,1667503210
246,regina,50.4501,-104.6178,-2.76,71,75,9.26,CA,1667503211
247,tharad,24.3961,71.6267,26.53,38,0,2.69,IN,1667503212
248,banikoara,11.2985,2.4386,27.54,32,10,1.98,BJ,1667503214
249,hofn,64.2539,-15.2082,6.43,67,100,7.46,IS,1667503215
250,nabire,-3.3667,135.4833,24.73,87,100,0.99,ID,1667502945
251,isangel,-19.55,169.2667,22.06,94,8,1.03,VU,1667503218
252,alpignano,45.102,7.5266,13.16,91,75,2.06,IT,1667503220
253,baculin,7.4525,126.5842,25.87,85,88,2.07,PH,1667503221
254,kaitangata,-46.2817,169.8464,9.2,66,14,3.74,NZ,1667503222
255,amga,60.8953,131.9608,-22.39,100,90,1.35,RU,1667503223
256,palomares,17.15,-95.0667,27.36,77,96,5.22,MX,1667503224
257,kaniama,-7.5667,24.1833,18.41,97,92,0.54,CD,1667503225
258,preobrazheniye,42.9019,133.9064,-0.47,52,0,3.29,RU,1667503226
259,riberalta,-10.9833,-66.1,30.11,23,5,7.2,BO,1667503227
260,ahuimanu,21.4447,-157.8378,27.84,81,40,4.02,US,1667503228
261,campo verde,-20.4167,-54.0667,23.95,39,43,7.85,BR,1667503230
262,mackay,-21.15,149.2,15.93,63,5,5.91,AU,1667503232
263,acarau,-2.8856,-40.12,28.65,68,32,6.91,BR,1667503233
264,balkhash,46.844,74.9804,5.59,52,100,3.89,KZ,1667503234
265,kruisfontein,-34.0033,24.7314,19.38,82,25,5.28,ZA,1667503235
266,otane,-39.8833,176.6333,14.15,69,0,1.56,NZ,1667503236
267,coquimbo,-29.9533,-71.3436,17.85,63,0,6.69,CL,1667503150
268,dingle,10.9995,122.6711,24.28,94,87,2.45,PH,1667503239
269,monaragala,6.8714,81.3487,23.87,91,100,0.64,LK,1667503240
270,biltine,14.5333,20.9167,24.6,14,100,4.33,TD,1667503242
271,ponta delgada,37.7333,-25.6667,21.39,94,75,3.09,PT,1667503225
272,jimeta,9.2833,12.4667,28.7,33,100,0.91,NG,1667503244
273,narsaq,60.9167,-46.05,5.12,60,100,7.63,GL,1667503245
274,tazmalt,36.3868,4.3989,20.68,39,86,0.99,DZ,1667503247
275,murgab,37.4966,61.9714,13.93,94,100,2.06,TM,1667503249
276,nkayi,-4.1841,13.2884,23.39,92,48,1.08,CG,1667503250
277,karatsu,33.4425,129.9697,12.94,58,71,1.46,JP,1667503251
278,avarua,-21.2078,-159.775,24.03,73,40,6.17,CK,1667503252
279,adet,11.2644,37.4888,13.3,79,99,2.65,ET,1667503253
280,los llanos de aridane,28.6585,-17.9182,20.86,92,75,3.09,ES,1667503255
281,zhigansk,66.7697,123.3711,-16.3,94,99,3.4,RU,1667503169
282,manggar,-2.8833,108.2667,26.61,80,100,1.54,ID,1667503257
283,grand gaube,-20.0064,57.6608,23.54,72,100,2.68,MU,1667503258
284,yarmouth,41.7057,-70.2286,18.87,63,0,3.09,US,1667503260
285,kitwe,-12.7961,28.2477,22.43,58,91,2.63,ZM,1667503263
286,chara,56.9064,118.2631,-10.56,87,100,0.22,RU,1667503264
287,haapsalu,58.9431,23.5414,7.77,93,19,1.36,EE,1667503266
288,zonguldak,41.25,31.8333,10.41,95,89,0.43,TR,1667502785
289,tokmak,47.2514,35.7058,8.67,65,100,0.49,UA,1667503268
290,aquiraz,-3.9014,-38.3911,31.36,64,28,4.74,BR,1667503269
291,sakaiminato,35.55,133.2333,12.99,94,75,2.06,JP,1667503270
292,te anau,-45.4167,167.7167,7.36,95,100,3.54,NZ,1667503272
293,verkhniy uslon,55.7701,48.9823,3.12,96,100,3.38,RU,1667503273
294,makuyuni,-4.7333,38.1,22.94,74,6,1.42,TZ,1667503274
295,guerrero negro,27.9769,-114.0611,20.24,51,0,9.53,MX,1667503275
296,udachnyy,66.4167,112.4,-16.06,84,100,4.27,RU,1667503277
297,sisimiut,66.9395,-53.6735,-6.45,57,100,3.76,GL,1667503278
298,beloha,-25.1667,45.05,19.0,72,85,3.19,MG,1667503279
299,kuytun,54.3419,101.5036,-5.94,81,60,1.24,RU,1667503280
300,ejea de los caballeros,42.1263,-1.1372,13.12,63,70,7.99,ES,1667503281
301,pedernales,18.0384,-71.744,28.98,68,67,3.39,DO,1667503283
302,kaeo,-35.1,173.7833,15.74,97,33,1.4,NZ,1667503284
303,sambava,-14.2667,50.1667,21.65,87,3,1.47,MG,1667503285
304,carnarvon,-24.8667,113.6333,20.21,85,0,7.03,AU,1667503286
305,srednekolymsk,67.45,153.6833,-29.25,93,32,1.68,RU,1667503288
306,cherskiy,68.75,161.3,-30.75,97,8,1.82,RU,1667503289
307,yatou,37.15,122.3833,5.9,58,6,5.21,CN,1667503290
308,fort nelson,58.8053,-122.7002,-10.03,74,75,1.34,CA,1667503292
309,honiara,-9.4333,159.95,24.98,87,11,1.69,SB,1667503293
310,nurota,40.5614,65.6886,12.45,73,7,1.89,UZ,1667503295
311,lujiang,31.2581,117.2817,13.17,67,26,3.18,CN,1667503296
312,camacha,33.0833,-16.3333,19.68,88,40,3.09,PT,1667503297
313,bireun,5.203,96.7009,24.17,87,100,2.22,ID,1667503298
314,katsuura,35.1333,140.3,20.76,69,100,10.56,JP,1667503300
315,chuzhou,32.3219,118.2978,12.63,83,43,4.73,CN,1667503302
316,negombo,7.2083,79.8358,25.47,84,82,1.49,LK,1667503306
317,nemuro,43.3236,145.575,6.81,62,91,6.17,JP,1667503307
318,lagoa,39.05,-27.9833,19.33,89,2,5.29,PT,1667503309
319,klaksvik,62.2266,-6.589,7.51,81,99,13.74,FO,1667503246
320,bethel,41.3712,-73.414,21.47,46,0,2.57,US,1667503311
321,necochea,-38.5473,-58.7368,22.24,37,0,7.99,AR,1667503312
322,ahipara,-35.1667,173.1667,16.4,86,25,2.12,NZ,1667503313
323,shenjiamen,29.9576,122.298,17.99,64,100,8.07,CN,1667503314
324,panaba,21.2833,-88.2667,30.74,62,94,4.6,MX,1667503315
325,qaqortoq,60.7167,-46.0333,2.96,68,100,6.55,GL,1667503316
326,kamenka,51.3223,42.7678,0.76,86,100,2.77,RU,1667503317
327,gizo,-8.103,156.8419,27.98,78,78,4.04,SB,1667503319
328,itarema,-2.9248,-39.9167,28.45,67,16,6.8,BR,1667503320
329,honningsvag,70.9821,25.9704,5.86,75,100,8.75,NO,1667503321
330,bongaigaon,26.4782,90.5568,19.18,78,0,1.41,IN,1667503322
331,eureka,40.8021,-124.1637,11.22,91,17,0.89,US,1667503323
332,puerto leguizamo,-0.1934,-74.7819,21.88,68,100,1.84,CO,1667503324
333,dudinka,69.4058,86.1778,-8.87,81,100,9.35,RU,1667503327
334,maniitsoq,65.4167,-52.9,-2.07,45,100,3.89,GL,1667503328
335,nisia floresta,-6.0911,-35.2086,28.45,62,3,5.6,BR,1667503329
336,elko,41.0002,-115.5012,1.01,55,42,4.02,US,1667503330
337,comodoro rivadavia,-45.8667,-67.5,21.92,33,0,3.6,AR,1667503331
338,marseille,43.3333,5.5,17.14,86,100,3.13,FR,1667502747
339,pacific grove,36.6177,-121.9166,15.01,61,0,3.58,US,1667503333
340,clyde river,70.4692,-68.5914,-3.87,93,100,4.12,CA,1667503335
341,rio grande,-32.035,-52.0986,23.06,68,0,6.66,BR,1667503336
342,tecpan,14.7623,-90.9947,16.61,90,99,1.66,GT,1667503337
343,port blair,11.6667,92.75,25.83,74,36,2.07,IN,1667503338
344,kahului,20.8947,-156.47,28.01,67,40,6.71,US,1667503339
345,sayat,38.7839,63.8803,10.93,68,100,2.8,TM,1667503333
346,moranbah,-22.0016,148.0466,16.5,70,0,5.98,AU,1667503341
347,flin flon,54.7682,-101.865,-4.09,80,100,5.66,CA,1667503232
348,tiksi,71.6872,128.8694,-18.98,99,90,2.84,RU,1667503345
349,hervey bay,-25.2986,152.8535,16.03,73,0,5.48,AU,1667503346
350,binzhou,37.3667,118.0167,4.8,68,0,0.65,CN,1667503347
351,rosarito,32.3333,-117.0333,17.54,50,6,10.51,MX,1667503348
352,hami,42.8,93.45,7.02,33,39,3.47,CN,1667503349
353,batemans bay,-35.7167,150.1833,9.77,90,11,1.48,AU,1667503350
354,fare,-16.7,-151.0167,24.69,83,100,9.47,PF,1667503352
355,ballitoville,-29.539,31.2144,22.31,83,75,4.12,ZA,1667503215
356,maine-soroa,13.2114,12.0241,27.44,17,92,3.77,NE,1667503354
357,yining,29.0361,114.5636,14.12,73,80,1.26,CN,1667503355
358,warrington,53.3925,-2.5802,9.23,84,20,3.09,GB,1667503357
359,neiafu,-18.65,-173.9833,25.65,85,99,7.76,TO,1667503358
360,ayan,56.45,138.1667,-4.3,68,100,8.3,RU,1667503359
361,zhumadian,32.9794,114.0294,10.66,77,99,4.19,CN,1667503360
362,qurayyat,31.3318,37.3428,17.1,42,0,3.09,SA,1667503361
363,novoagansk,61.9449,76.6625,-2.03,98,99,2.5,RU,1667503362
364,upernavik,72.7868,-56.1549,-6.86,52,80,4.26,GL,1667503364
365,novikovo,51.1537,37.8879,2.23,71,14,1.43,RU,1667503365
366,okhotsk,59.3833,143.3,-3.85,84,100,5.12,RU,1667503250
367,olinda,-8.0089,-34.8553,27.85,69,40,4.12,BR,1667503367
368,kampot,10.6167,104.1833,26.03,92,100,1.68,KH,1667503368
369,ostrogozhsk,50.8664,39.0756,0.95,72,0,1.3,RU,1667503369
370,cockburn town,21.4612,-71.1419,27.04,65,7,5.28,TC,1667503370
371,hudson bay,52.85,-102.3842,-3.15,58,100,6.35,CA,1667503371
372,martapura,-3.4167,114.85,25.05,100,99,1.03,ID,1667503372
373,onguday,50.75,86.15,2.72,53,100,1.45,RU,1667503373
374,luwuk,-0.9516,122.7875,25.34,87,100,0.75,ID,1667503374
375,ambanja,-13.6833,48.45,23.7,87,100,0.68,MG,1667503376
376,luderitz,-26.6481,15.1594,15.48,89,0,0.1,NA,1667503377
377,veere,51.5483,3.6667,12.25,90,100,6.17,NL,1667503378
378,namibe,-15.1961,12.1522,20.16,83,25,2.0,AO,1667503379
379,songkhla,6.8333,100.6667,25.03,96,88,0.81,TH,1667503380
380,zhangjiakou,40.81,114.8794,-1.15,36,2,2.11,CN,1667503381
381,odweyne,9.4092,45.064,23.94,58,74,3.72,SO,1667503383
382,yavas,54.4159,42.8491,1.27,93,100,1.93,RU,1667503384
383,lavrentiya,65.5833,-171.0,-11.94,81,13,4.11,RU,1667503385
384,shumskiy,54.8318,99.1328,-1.45,76,100,1.36,RU,1667503386
385,iskateley,67.6803,53.1512,-8.45,87,67,2.73,RU,1667503389
386,maragogi,-9.0122,-35.2225,27.05,68,8,6.38,BR,1667503391
387,zalantun,48.0,122.7167,-8.25,52,0,2.18,CN,1667503113
388,ituiutaba,-18.9689,-49.465,21.26,63,100,4.91,BR,1667503393
389,kargasok,59.0556,80.8572,-2.34,89,95,3.13,RU,1667503394
390,houma,29.5958,-90.7195,28.33,57,0,2.06,US,1667503395
391,suna,57.8338,50.0588,0.11,94,100,4.06,RU,1667503396
392,beringovskiy,63.05,179.3167,-9.84,92,100,2.56,RU,1667503397
393,barra do garcas,-15.89,-52.2567,30.32,48,75,6.17,BR,1667503398
394,mahebourg,-20.4081,57.7,23.47,78,40,3.09,MU,1667503400
395,nelson bay,-32.7167,152.15,15.56,96,99,1.34,AU,1667503401
396,esmeraldas,-19.7625,-44.3139,17.17,79,100,3.0,BR,1667503402
397,severo-kurilsk,50.6789,156.125,5.56,91,100,5.56,RU,1667503403
398,susehri,40.1644,38.0867,9.4,61,31,1.88,TR,1667503406
399,makat,47.6469,53.3463,2.57,74,100,5.01,KZ,1667503407
400,birobidzhan,48.8,132.95,-6.03,64,0,2.31,RU,1667503409
401,gamba,-2.65,10.0,23.15,89,100,1.33,GA,1667503410
402,pemangkat,1.1667,108.9667,26.81,81,100,0.53,ID,1667503411
403,omboue,-1.5746,9.2618,24.68,87,100,1.89,GA,1667503413
404,areka,7.0667,37.7,18.46,59,79,1.25,ET,1667503414
405,harper,4.375,-7.7169,25.67,87,100,2.61,LR,1667503416
406,sungurlu,40.1675,34.3739,12.58,47,53,0.2,TR,1667503417
407,praia da vitoria,38.7333,-27.0667,20.14,88,20,3.53,PT,1667503418
408,mahajanga,-15.7167,46.3167,26.01,83,40,4.12,MG,1667503202
409,hovd,48.0056,91.6419,-4.08,79,93,0.43,MN,1667503227
410,jalu,29.0331,21.5482,20.54,48,100,3.26,LY,1667503422
411,lockport,41.5895,-88.0578,23.44,55,0,10.29,US,1667503423
412,partizanskoye,55.5006,94.39,0.66,64,100,3.01,RU,1667503424
413,kyshtovka,56.555,76.6271,-0.82,94,100,3.84,RU,1667503425
414,acajutla,13.5928,-89.8275,29.14,68,38,2.24,SV,1667503427
415,san policarpo,12.1791,125.5072,27.48,80,98,4.14,PH,1667503428
416,nome,64.5011,-165.4064,-7.96,73,0,4.12,US,1667503429
417,ispas,48.2973,25.2741,6.93,74,100,1.25,UA,1667503431
418,ardmore,34.1743,-97.1436,22.88,77,100,5.66,US,1667503432
419,le port,-20.9373,55.2919,23.0,69,61,1.86,RE,1667503434
420,omsukchan,62.5333,155.8,-21.42,100,100,1.01,RU,1667503435
421,spornoye,50.8448,37.2913,4.45,84,96,1.81,RU,1667503436
422,isiro,2.7739,27.616,19.48,99,100,0.27,CD,1667503437
423,jacareacanga,-6.2222,-57.7528,32.59,41,90,1.4,BR,1667503438
424,shush,32.1942,48.2436,22.65,26,0,3.97,IR,1667503439
425,grindavik,63.8424,-22.4338,3.97,87,20,4.63,IS,1667503440
426,mago,53.2514,140.1822,-0.01,94,100,8.28,RU,1667503442
427,bubaque,11.2833,-15.8333,28.59,69,41,3.51,GW,1667503443
428,boda,4.3189,17.4695,21.76,93,100,1.25,CF,1667503444
429,greeneville,36.1632,-82.831,23.05,50,75,2.57,US,1667503445
430,taunggyi,20.7833,97.0333,11.98,65,0,0.76,MM,1667503446
431,oistins,13.0667,-59.5333,30.05,70,40,7.2,BB,1667503447
432,namatanai,-3.6667,152.4333,26.61,80,61,1.27,PG,1667503449
433,buta,2.7858,24.73,21.28,99,100,0.75,CD,1667503451
434,cap malheureux,-19.9842,57.6142,23.59,72,100,2.24,MU,1667503453
435,mackenzie,55.2999,-123.1698,-4.88,86,100,5.66,CA,1667503454
436,lazaro cardenas,17.9583,-102.2,29.06,70,3,2.97,MX,1667503455
437,ekhabi,53.5102,142.9671,-1.45,61,53,3.76,RU,1667503459
438,taksimo,56.3444,114.8794,-9.85,88,98,1.11,RU,1667503460
439,areosa,41.7178,-8.8571,13.78,73,96,4.86,PT,1667503461
440,samarai,-10.6167,150.6667,27.27,80,64,3.14,PG,1667503462
441,sharkan,57.2989,53.8712,-1.6,95,94,2.57,RU,1667503464
442,gorontalo,0.5412,123.0595,24.16,95,100,1.35,ID,1667503466
443,santa maria,-29.6842,-53.8069,24.61,27,0,3.09,BR,1667503467
444,ormara,25.2088,64.6357,26.38,70,0,5.21,PK,1667503468
445,sorong,-0.8833,131.25,25.99,83,100,1.57,ID,1667503469
446,burnie,-41.0667,145.9167,9.41,76,0,4.59,AU,1667503470
447,cidreira,-30.1811,-50.2056,18.74,48,0,5.11,BR,1667503471
448,lamu,-2.2717,40.902,25.12,81,4,3.58,KE,1667503472
449,arman,59.7,150.1667,-3.32,87,100,4.79,RU,1667503474
450,san rafael,-34.6177,-68.3301,28.02,10,13,8.5,AR,1667503422
451,newport,51.5877,-2.9984,10.35,89,100,2.25,GB,1667502688
452,handia,25.3833,82.1833,22.04,50,0,1.25,IN,1667503478
453,kendari,-3.945,122.4989,25.09,88,66,0.29,ID,1667503479
454,coahuayana,18.7333,-103.6833,31.44,61,9,2.62,MX,1667503480
455,avera,33.194,-82.5271,25.31,42,0,3.05,US,1667503481
456,erdenet,49.0333,104.0833,-5.92,66,13,1.6,MN,1667503482
457,karasjok,69.4719,25.5112,1.96,98,100,5.42,NO,1667503484
458,wagar,16.1525,36.2032,28.82,54,3,6.29,SD,1667503485
459,mocuba,-16.8392,36.9856,24.18,77,50,2.78,MZ,1667503486
460,gladstone,-23.85,151.25,16.55,77,0,2.57,AU,1667503487
461,ixtapa,20.7,-105.2,28.57,48,0,3.6,MX,1667503488
462,okha,53.5739,142.9478,-1.31,60,38,3.8,RU,1667503489
463,ilulissat,69.2167,-51.1,-1.99,50,40,8.75,GL,1667503492
464,armizonskoye,55.9461,67.6736,0.42,98,100,3.14,RU,1667503493
465,ambunti,-4.2365,142.8448,23.05,99,100,0.7,PG,1667503495
466,matara,5.9485,80.5353,24.77,87,92,3.34,LK,1667503496
467,sibsagar,26.9833,94.6333,17.83,89,1,1.41,IN,1667503497
468,yumen,40.2833,97.2,0.69,56,0,5.29,CN,1667503498
469,mabaruma,8.2,-59.7833,27.38,85,87,2.2,GY,1667503499
470,husavik,66.0449,-17.3389,3.81,99,100,2.83,IS,1667503500
471,bartica,6.4,-58.6167,27.21,90,100,1.37,GY,1667503502
472,havre-saint-pierre,50.2334,-63.5986,3.2,60,100,5.14,CA,1667503503
473,ledyard,41.4398,-72.0142,20.71,62,0,3.09,US,1667503505
474,farah,32.5,62.5,19.33,29,100,0.82,AF,1667503507
475,the valley,18.217,-63.0578,30.92,70,20,4.63,AI,1667503508
476,gisborne,-38.6533,178.0042,16.5,75,0,3.16,NZ,1667503511
477,majene,-3.5403,118.9707,25.95,83,100,1.15,ID,1667503512
478,dondo,-19.6094,34.7431,25.73,88,31,2.33,MZ,1667503513
479,zemio,5.0314,25.1361,21.23,95,100,1.54,CF,1667503515
480,tyshkivka,48.4967,30.9423,8.88,80,99,4.64,UA,1667503516
481,mehamn,71.0357,27.8492,3.97,81,0,1.54,NO,1667503517
482,kalininsk,51.5,44.4758,1.3,89,100,3.73,RU,1667503519
483,hasaki,35.7333,140.8333,10.22,58,100,7.28,JP,1667503521
484,hof,50.3167,11.9167,9.85,84,0,3.6,DE,1667503510
485,fortuna,40.5982,-124.1573,11.07,56,0,2.06,US,1667503523
486,wahpeton,46.2652,-96.6059,5.01,87,100,9.26,US,1667503524
487,mercedes,-34.6515,-59.4307,29.41,12,2,5.29,AR,1667503400
488,esperance,-33.8667,121.9,15.62,70,64,8.57,AU,1667503526
489,kayes,14.0,-11.0,29.5,15,0,3.21,ML,1667503528
490,sinnamary,5.3833,-52.95,28.64,68,18,4.34,GF,1667503529
491,grong,64.4654,12.3149,5.6,87,24,2.66,NO,1667503530
492,krasnaya gorka,55.1962,56.6673,-0.98,80,51,2.1,RU,1667503531
493,haines junction,60.7522,-137.5108,-2.03,80,100,0.51,CA,1667503532
494,clearwater,27.9659,-82.8001,30.95,74,100,6.26,US,1667503534
495,baijiantan,45.6333,85.1833,8.7,53,96,2.47,CN,1667503535
496,keti bandar,24.1447,67.4497,26.62,69,0,4.28,PK,1667503536
497,porbandar,21.6422,69.6093,26.89,56,0,2.59,IN,1667503494
498,xuddur,4.1213,43.8894,24.89,67,91,3.25,SO,1667503538
499,chapais,49.7834,-74.8492,14.88,56,100,6.42,CA,1667503539
500,koratagere,13.5228,77.2331,20.22,89,93,1.64,IN,1667503540
501,algiers,36.7525,3.042,18.9,83,20,2.06,DZ,1667503197
502,alvorada,-12.48,-49.1247,29.54,58,100,3.32,BR,1667503542
503,hambantota,6.1241,81.1185,25.64,83,100,4.37,LK,1667503543
504,beecher,43.09,-83.6944,22.41,54,0,5.14,US,1667503545
505,lincoln,40.8,-96.667,24.42,60,20,7.72,US,1667503546
506,sao joao da barra,-21.6403,-41.0511,21.05,68,100,6.77,BR,1667503547
507,kondopoga,62.2057,34.2614,-1.18,98,81,0.34,RU,1667503497
508,broome,42.2506,-75.833,21.22,42,0,4.63,US,1667503549
509,westport,41.1415,-73.3579,21.46,58,0,1.34,US,1667503550
510,wukari,7.85,9.7833,27.61,57,100,1.1,NG,1667503551
511,mae hong son,19.3003,97.9685,19.75,80,0,0.6,TH,1667503552
512,praia,14.9215,-23.5087,28.3,51,0,5.66,CV,1667503278
513,manzhouli,49.6,117.4333,-7.54,80,100,3.27,CN,1667503554
514,kulhudhuffushi,6.6221,73.07,27.45,76,100,3.95,MV,1667503555
515,ketchikan,55.3422,-131.6461,7.26,87,75,1.54,US,1667503556
516,san ramon,37.7799,-121.978,14.45,48,0,3.6,US,1667503557
517,basco,20.4487,121.9702,26.5,83,6,2.46,PH,1667503559
518,yuli,9.6989,10.2744,28.07,39,100,1.24,NG,1667503561
519,havoysund,70.9963,24.6622,6.13,90,100,3.98,NO,1667503562
520,lata,40.1629,-8.3327,16.07,98,100,1.08,PT,1667503563
521,celestun,20.8667,-90.4,29.28,69,100,4.15,MX,1667503565
522,korla,41.7597,86.1469,8.99,39,98,3.43,CN,1667503566
523,ipanema,-30.1391,-51.2244,24.41,32,0,4.63,BR,1667503568
524,aswan,24.0934,32.907,23.61,33,0,2.06,EG,1667503323
525,san felipe,10.3399,-68.7425,27.73,63,99,4.4,VE,1667503570
526,macapa,0.0389,-51.0664,31.99,66,40,2.57,BR,1667503330
527,sovetsk,55.0839,21.8785,6.89,91,6,2.03,RU,1667503572
528,alice springs,-23.7,133.8833,8.75,57,0,0.0,AU,1667503573
529,kloulklubed,7.0419,134.2556,23.28,71,100,1.8,PW,1667503574
530,lethem,3.3803,-59.7968,24.68,87,99,4.13,GY,1667503575
531,iranshahr,27.2025,60.6848,22.19,21,0,2.06,IR,1667503577
532,brigg,53.552,-0.4921,7.95,96,20,1.03,GB,1667503578
533,ostrovnoy,68.0531,39.5131,1.42,88,59,7.64,RU,1667503579
534,eyl,7.9803,49.8164,25.92,75,10,3.64,SO,1667503580
535,mitu,1.1983,-70.1733,24.63,69,100,1.57,CO,1667503581
536,umm kaddadah,13.6017,26.6876,24.58,15,46,6.04,SD,1667503582
537,padang,-0.9492,100.3543,25.04,88,100,1.93,ID,1667503583
538,simbahan,6.3032,120.5836,28.27,75,100,3.49,PH,1667503585
539,chickasha,35.0526,-97.9364,22.51,73,100,6.69,US,1667503586
540,rosario do sul,-30.2583,-54.9142,23.42,39,0,5.39,BR,1667503587
541,fukue,32.6881,128.8419,17.89,65,9,10.54,JP,1667503588
542,roslavl,53.9528,32.8639,4.96,93,100,1.43,RU,1667503520
543,shingu,33.7333,135.9833,15.16,76,99,2.33,JP,1667503590
544,saint-leu,-21.15,55.2833,22.48,79,56,1.84,RE,1667503591
545,mumford,5.2618,-0.759,26.76,84,100,3.29,GH,1667503592
546,myanaung,18.2833,95.3167,22.37,83,0,1.24,MM,1667503593
547,sri aman,1.2376,111.4621,25.03,94,100,0.0,MY,1667503595
548,adre,13.4667,22.2,22.26,17,19,5.91,TD,1667503596
549,krutinka,56.0055,71.5113,2.27,93,100,5.93,RU,1667503597
550,makakilo city,21.3469,-158.0858,27.18,74,0,3.09,US,1667503598
551,cabedelo,-6.9811,-34.8339,28.37,68,19,5.38,BR,1667503599
552,kawambwa,-9.7915,29.0791,21.47,61,69,0.68,ZM,1667503601
